{
  "東京メトロ": {
    "銀座線": [
      { "name": "浅草", "lat": 35.711998, "lng": 139.79861 },
      { "name": "田原町", "lat": 35.709444, "lng": 139.792778 },
      { "name": "稲荷町", "lat": 35.711889, "lng": 139.781278 },
      { "name": "上野", "lat": 35.713768, "lng": 139.777254 },
      { "name": "上野広小路", "lat": 35.707889, "lng": 139.774833 },
      { "name": "末広町", "lat": 35.702333, "lng": 139.773444 },
      { "name": "神田", "lat": 35.69169, "lng": 139.770883 },
      { "name": "三越前", "lat": 35.686389, "lng": 139.773056 },
      { "name": "日本橋", "lat": 35.681111, "lng": 139.773889 },
      { "name": "京橋", "lat": 35.676111, "lng": 139.770833 },
      { "name": "銀座", "lat": 35.671667, "lng": 139.765 },
      { "name": "新橋", "lat": 35.666333, "lng": 139.758667 },
      { "name": "虎ノ門", "lat": 35.668889, "lng": 139.749444 },
      { "name": "溜池山王", "lat": 35.673889, "lng": 139.739444 },
      { "name": "赤坂見附", "lat": 35.677222, "lng": 139.736667 },
      { "name": "青山一丁目", "lat": 35.672778, "lng": 139.723611 },
      { "name": "外苑前", "lat": 35.67, "lng": 139.717222 },
      { "name": "表参道", "lat": 35.665278, "lng": 139.7125 },
      { "name": "渋谷", "lat": 35.658034, "lng": 139.701636 }
    ],

    "丸ノ内線": [
     { "name": "池袋", "lat": 35.728926, "lng": 139.71038 },
     { "name": "新大塚", "lat": 35.726111, "lng": 139.728333 },
     { "name": "茗荷谷", "lat": 35.717778, "lng": 139.735278 },
     { "name": "後楽園", "lat": 35.7075, "lng": 139.752778 },
     { "name": "本郷三丁目", "lat": 35.706111, "lng": 139.761111 },
     { "name": "御茶ノ水", "lat": 35.699444, "lng": 139.765 },
     { "name": "淡路町", "lat": 35.695, "lng": 139.767222 },
     { "name": "大手町", "lat": 35.684167, "lng": 139.766944 },
     { "name": "東京", "lat": 35.681236, "lng": 139.767125 },
     { "name": "銀座", "lat": 35.671667, "lng": 139.765 },
     { "name": "霞ケ関", "lat": 35.673611, "lng": 139.751944 },
     { "name": "国会議事堂前", "lat": 35.673333, "lng": 139.743333 },
     { "name": "赤坂見附", "lat": 35.677222, "lng": 139.736667 },
     { "name": "四ツ谷", "lat": 35.686111, "lng": 139.730556 },
     { "name": "四谷三丁目", "lat": 35.687778, "lng": 139.722778 },
     { "name": "新宿御苑前", "lat": 35.688611, "lng": 139.713889 },
     { "name": "新宿三丁目", "lat": 35.69, "lng": 139.705 },
     { "name": "新宿", "lat": 35.689592, "lng": 139.700413 },
     { "name": "西新宿", "lat": 35.694722, "lng": 139.692222 },
     { "name": "中野坂上", "lat": 35.697222, "lng": 139.682222 },
     { "name": "新中野", "lat": 35.697778, "lng": 139.668333 },
     { "name": "東高円寺", "lat": 35.697222, "lng": 139.658056 },
     { "name": "新高円寺", "lat": 35.697778, "lng": 139.648333 },
     { "name": "南阿佐ケ谷", "lat": 35.699167, "lng": 139.635 },
     { "name": "荻窪", "lat": 35.704444, "lng": 139.620556 },
     { "name": "中野坂上", "lat": 35.697222, "lng": 139.682222 },
     { "name": "中野新橋", "lat": 35.699167, "lng": 139.669167 },
     { "name": "中野富士見町", "lat": 35.6975, "lng": 139.659167 },
     { "name": "方南町", "lat": 35.683889, "lng": 139.651389 }
    ],

    "東西線": [
      { "name": "中野", "lat": 35.70564, "lng": 139.66568 },
      { "name": "落合", "lat": 35.708333, "lng": 139.685 },
      { "name": "高田馬場", "lat": 35.712778, "lng": 139.703889 },
      { "name": "早稲田", "lat": 35.705556, "lng": 139.721944 },
      { "name": "神楽坂", "lat": 35.705833, "lng": 139.734444 },
      { "name": "飯田橋", "lat": 35.702222, "lng": 139.745 },
      { "name": "九段下", "lat": 35.695, "lng": 139.751389 },
      { "name": "竹橋", "lat": 35.690833, "lng": 139.758056 },
      { "name": "大手町", "lat": 35.684167, "lng": 139.766944 },
      { "name": "日本橋", "lat": 35.681111, "lng": 139.773889 },
      { "name": "茅場町", "lat": 35.680556, "lng": 139.779722 },
      { "name": "門前仲町", "lat": 35.671667, "lng": 139.796667 },
      { "name": "木場", "lat": 35.669444, "lng": 139.807222 },
      { "name": "東陽町", "lat": 35.669167, "lng": 139.8175 },
      { "name": "南砂町", "lat": 35.668056, "lng": 139.830833 },
      { "name": "西葛西", "lat": 35.664722, "lng": 139.858611 },
      { "name": "葛西", "lat": 35.663611, "lng": 139.873889 },
  { "name": "浦安", "lat": 35.665833, "lng": 139.8925 },
  { "name": "南行徳", "lat": 35.671111, "lng": 139.901944 },
  { "name": "行徳", "lat": 35.684167, "lng": 139.914167 },
  { "name": "妙典", "lat": 35.692222, "lng": 139.924444 },
  { "name": "原木中山", "lat": 35.701111, "lng": 139.938333 },
  { "name": "西船橋", "lat": 35.707222, "lng": 139.958611 }
 ],

    "日比谷線": [
    { "name": "北千住", "lat": 35.749167, "lng": 139.804722 },
    { "name": "南千住", "lat": 35.733333, "lng": 139.799722 },
    { "name": "三ノ輪", "lat": 35.728056, "lng": 139.791944 },
    { "name": "入谷", "lat": 35.720278, "lng": 139.784722 },
    { "name": "上野", "lat": 35.713768, "lng": 139.777254 },
    { "name": "仲御徒町", "lat": 35.707778, "lng": 139.776111 },
    { "name": "秋葉原", "lat": 35.698683, "lng": 139.773071 },
    { "name": "小伝馬町", "lat": 35.690556, "lng": 139.778333 },
    { "name": "人形町", "lat": 35.686111, "lng": 139.7825 },
    { "name": "茅場町", "lat": 35.680556, "lng": 139.779722 },
    { "name": "八丁堀", "lat": 35.674722, "lng": 139.777222 },
    { "name": "築地", "lat": 35.665278, "lng": 139.770278 },
    { "name": "東銀座", "lat": 35.668611, "lng": 139.767222 },
    { "name": "銀座", "lat": 35.671667, "lng": 139.765 },
    { "name": "日比谷", "lat": 35.673333, "lng": 139.759444 },
    { "name": "霞ケ関", "lat": 35.673611, "lng": 139.751944 },
    { "name": "神谷町", "lat": 35.662778, "lng": 139.745 },
    { "name": "六本木", "lat": 35.662778, "lng": 139.731667 },
    { "name": "広尾", "lat": 35.652222, "lng": 139.7225 },
    { "name": "恵比寿", "lat": 35.646667, "lng": 139.710556 },
    { "name": "中目黒", "lat": 35.644167, "lng": 139.699444 }
    ],

    "有楽町線": [
  { "name": "和光市", "lat": 35.789722, "lng": 139.6125 },
  { "name": "地下鉄成増", "lat": 35.776944, "lng": 139.631944 },
  { "name": "地下鉄赤塚", "lat": 35.770556, "lng": 139.644167 },
  { "name": "平和台", "lat": 35.7575, "lng": 139.654722 },
  { "name": "氷川台", "lat": 35.749444, "lng": 139.665278 },
  { "name": "小竹向原", "lat": 35.743333, "lng": 139.679444 },
  { "name": "千川", "lat": 35.737778, "lng": 139.689444 },
  { "name": "要町", "lat": 35.725833, "lng": 139.700556 },
  { "name": "池袋", "lat": 35.728926, "lng": 139.71038 },
  { "name": "東池袋", "lat": 35.726111, "lng": 139.719167 },
  { "name": "護国寺", "lat": 35.720833, "lng": 139.726389 },
  { "name": "江戸川橋", "lat": 35.709444, "lng": 139.734444 },
  { "name": "飯田橋", "lat": 35.702222, "lng": 139.745 },
  { "name": "市ケ谷", "lat": 35.691111, "lng": 139.735833 },
  { "name": "麹町", "lat": 35.684722, "lng": 139.737222 },
  { "name": "永田町", "lat": 35.678611, "lng": 139.741667 },
  { "name": "桜田門", "lat": 35.675, "lng": 139.751667 },
  { "name": "有楽町", "lat": 35.675, "lng": 139.763333 },
  { "name": "銀座一丁目", "lat": 35.674444, "lng": 139.768056 },
  { "name": "新富町", "lat": 35.670278, "lng": 139.775556 },
  { "name": "月島", "lat": 35.664167, "lng": 139.784444 },
  { "name": "豊洲", "lat": 35.654444, "lng": 139.795 },
{ "name": "辰巳", "lat": 35.645833, "lng": 139.811389 },
{ "name": "新木場", "lat": 35.645278, "lng": 139.826389 }

],

"千代田線":[
  { "name": "北綾瀬", "lat": 35.783611, "lng": 139.825 },
  { "name": "綾瀬", "lat": 35.762222, "lng": 139.825278 },
  { "name": "北千住", "lat": 35.749167, "lng": 139.804722 },
  { "name": "町屋", "lat": 35.7425, "lng": 139.781944 },
  { "name": "西日暮里", "lat": 35.732778, "lng": 139.766389 },
  { "name": "千駄木", "lat": 35.724167, "lng": 139.7625 },
  { "name": "根津", "lat": 35.717222, "lng": 139.765 },
  { "name": "湯島", "lat": 35.7075, "lng": 139.769722 },
  { "name": "新御茶ノ水", "lat": 35.696111, "lng": 139.766944 },
  { "name": "大手町", "lat": 35.684167, "lng": 139.766944 },
  { "name": "二重橋前", "lat": 35.676667, "lng": 139.763611 },
  { "name": "日比谷", "lat": 35.673333, "lng": 139.759444 },
  { "name": "霞ケ関", "lat": 35.673611, "lng": 139.751944 },
  { "name": "国会議事堂前", "lat": 35.673333, "lng": 139.743333 },
  { "name": "赤坂", "lat": 35.671944, "lng": 139.736667 },
  { "name": "乃木坂", "lat": 35.666389, "lng": 139.726111 },
  { "name": "表参道", "lat": 35.665278, "lng": 139.7125 },
  { "name": "明治神宮前", "lat": 35.668333, "lng": 139.7075 },
  { "name": "代々木公園", "lat": 35.669722, "lng": 139.692222 },
  { "name": "代々木上原", "lat": 35.669167, "lng": 139.680556 }
],

"副都心線":[
  { "name": "和光市", "lat": 35.789722, "lng": 139.6125 },
  { "name": "地下鉄成増", "lat": 35.776944, "lng": 139.631944 },
  { "name": "地下鉄赤塚", "lat": 35.770556, "lng": 139.644167 },
  { "name": "平和台", "lat": 35.7575, "lng": 139.654722 },
  { "name": "氷川台", "lat": 35.749444, "lng": 139.665278 },
  { "name": "小竹向原", "lat": 35.743333, "lng": 139.679444 },
  { "name": "千川", "lat": 35.737778, "lng": 139.689444 },
  { "name": "要町", "lat": 35.725833, "lng": 139.700556 },
  { "name": "池袋", "lat": 35.728926, "lng": 139.71038 },
  { "name": "雑司が谷", "lat": 35.718333, "lng": 139.713611 },
  { "name": "西早稲田", "lat": 35.706944, "lng": 139.708056 },
  { "name": "東新宿", "lat": 35.6975, "lng": 139.707222 },
  { "name": "新宿三丁目", "lat": 35.69, "lng": 139.705 },
  { "name": "北参道", "lat": 35.679722, "lng": 139.706389 },
  { "name": "明治神宮前", "lat": 35.668333, "lng": 139.7075 },
  { "name": "渋谷", "lat": 35.658034, "lng": 139.701636 }
],
"半蔵門線":[
  { "name": "渋谷", "lat": 35.658034, "lng": 139.701636 },
  { "name": "表参道", "lat": 35.665278, "lng": 139.7125 },
  { "name": "青山一丁目", "lat": 35.672778, "lng": 139.723611 },
  { "name": "永田町", "lat": 35.678611, "lng": 139.741667 },
  { "name": "半蔵門", "lat": 35.685833, "lng": 139.7425 },
  { "name": "九段下", "lat": 35.695, "lng": 139.751389 },
  { "name": "神保町", "lat": 35.695833, "lng": 139.757222 },
  { "name": "大手町", "lat": 35.684167, "lng": 139.766944 },
  { "name": "三越前", "lat": 35.686389, "lng": 139.773056 },
  { "name": "水天宮前", "lat": 35.682222, "lng": 139.785278 },
  { "name": "清澄白河", "lat": 35.681111, "lng": 139.798333 },
  { "name": "住吉", "lat": 35.688889, "lng": 139.816111 },
  { "name": "錦糸町", "lat": 35.696111, "lng": 139.814722 },
  { "name": "押上", "lat": 35.710833, "lng": 139.813056 }
],
"南北線":[
  { "name": "目黒", "lat": 35.633889, "lng": 139.715 },
  { "name": "白金台", "lat": 35.635278, "lng": 139.724722 },
  { "name": "白金高輪", "lat": 35.6425, "lng": 139.734444 },
  { "name": "麻布十番", "lat": 35.656111, "lng": 139.736389 },
  { "name": "六本木一丁目", "lat": 35.665, "lng": 139.739444 },
  { "name": "溜池山王", "lat": 35.673889, "lng": 139.739444 },
  { "name": "永田町", "lat": 35.678611, "lng": 139.741667 },
  { "name": "四ツ谷", "lat": 35.686111, "lng": 139.730556 },
  { "name": "市ケ谷", "lat": 35.691111, "lng": 139.735833 },
  { "name": "飯田橋", "lat": 35.702222, "lng": 139.745 },
  { "name": "後楽園", "lat": 35.7075, "lng": 139.752778 },
  { "name": "東大前", "lat": 35.717222, "lng": 139.759444 },
  { "name": "本駒込", "lat": 35.724444, "lng": 139.753333 },
  { "name": "駒込", "lat": 35.736111, "lng": 139.746389 },
  { "name": "西ケ原", "lat": 35.746389, "lng": 139.742222 },
  { "name": "王子", "lat": 35.7525, "lng": 139.738889 },
  { "name": "王子神谷", "lat": 35.764444, "lng": 139.735556 },
  { "name": "志茂", "lat": 35.776111, "lng": 139.7325 },
  { "name": "赤羽岩淵", "lat": 35.784722, "lng": 139.720556 }
]

  },
  "都営地下鉄": {
    "三田線": [
  { "name": "目黒", "lat": 35.633889, "lng": 139.715 },
  { "name": "白金台", "lat": 35.635278, "lng": 139.724722 },
  { "name": "白金高輪", "lat": 35.6425, "lng": 139.734444 },
  { "name": "三田", "lat": 35.648333, "lng": 139.747778 },
  { "name": "芝公園", "lat": 35.655, "lng": 139.748611 },
  { "name": "御成門", "lat": 35.658611, "lng": 139.7525 },
  { "name": "内幸町", "lat": 35.671111, "lng": 139.756111 },
  { "name": "日比谷", "lat": 35.673333, "lng": 139.759444 },
  { "name": "大手町", "lat": 35.684167, "lng": 139.766944 },
  { "name": "神保町", "lat": 35.695833, "lng": 139.757222 },
  { "name": "水道橋", "lat": 35.702222, "lng": 139.754444 },
  { "name": "春日", "lat": 35.707778, "lng": 139.753333 },
  { "name": "白山", "lat": 35.720833, "lng": 139.7525 },
  { "name": "千石", "lat": 35.727778, "lng": 139.744444 },
  { "name": "巣鴨", "lat": 35.733333, "lng": 139.739444 },
  { "name": "西巣鴨", "lat": 35.744444, "lng": 139.728611 },
  { "name": "新板橋", "lat": 35.751389, "lng": 139.720833 },
  { "name": "板橋区役所前", "lat": 35.751667, "lng": 139.713611 },
  { "name": "板橋本町", "lat": 35.763611, "lng": 139.705833 },
  { "name": "本蓮沼", "lat": 35.770833, "lng": 139.703611 },
  { "name": "志村坂上", "lat": 35.777778, "lng": 139.695 },
  { "name": "志村三丁目", "lat": 35.782222, "lng": 139.685833 },
  { "name": "蓮根", "lat": 35.7875, "lng": 139.677222 },
  { "name": "西台", "lat": 35.791944, "lng": 139.670833 },
  { "name": "高島平", "lat": 35.793611, "lng": 139.661667 },
  { "name": "新高島平", "lat": 35.791111, "lng": 139.653889 },
  { "name": "西高島平", "lat": 35.790556, "lng": 139.646389 }
 ],

 "新宿線":[
  { "name": "新宿", "lat": 35.689592, "lng": 139.700413 },
  { "name": "新宿三丁目", "lat": 35.69, "lng": 139.705 },
  { "name": "曙橋", "lat": 35.692778, "lng": 139.7225 },
  { "name": "市ヶ谷", "lat": 35.691111, "lng": 139.735833 },
  { "name": "九段下", "lat": 35.695, "lng": 139.751389 },
  { "name": "神保町", "lat": 35.695833, "lng": 139.757222 },
  { "name": "小川町", "lat": 35.695278, "lng": 139.767222 },
  { "name": "岩本町", "lat": 35.695833, "lng": 139.776389 },
  { "name": "馬喰横山", "lat": 35.691667, "lng": 139.784167 },
  { "name": "浜町", "lat": 35.689722, "lng": 139.7925 },
  { "name": "森下", "lat": 35.688333, "lng": 139.798889 },
  { "name": "菊川", "lat": 35.688056, "lng": 139.806944 },
  { "name": "住吉", "lat": 35.689722, "lng": 139.814444 },
  { "name": "西大島", "lat": 35.689167, "lng": 139.825833 },
  { "name": "大島", "lat": 35.688611, "lng": 139.835278 },
  { "name": "東大島", "lat": 35.688333, "lng": 139.848056 },
  { "name": "船堀", "lat": 35.684722, "lng": 139.864722 },
  { "name": "一之江", "lat": 35.682778, "lng": 139.878056 },
  { "name": "瑞江", "lat": 35.6875, "lng": 139.891667 },
  { "name": "篠崎", "lat": 35.706111, "lng": 139.903889 }
 ],
"大江戸線":[
  { "name": "都庁前", "lat": 35.689722, "lng": 139.692222 },
  { "name": "新宿西口", "lat": 35.694722, "lng": 139.699167 },
  { "name": "東新宿", "lat": 35.695833, "lng": 139.7075 },
  { "name": "若松河田", "lat": 35.6975, "lng": 139.720833 },
  { "name": "牛込柳町", "lat": 35.698611, "lng": 139.728611 },
  { "name": "牛込神楽坂", "lat": 35.7025, "lng": 139.744167 },
  { "name": "飯田橋", "lat": 35.702222, "lng": 139.745 },
  { "name": "春日", "lat": 35.707778, "lng": 139.753333 },
  { "name": "本郷三丁目", "lat": 35.706111, "lng": 139.761111 },
  { "name": "上野御徒町", "lat": 35.7075, "lng": 139.774167 },
  { "name": "新御徒町", "lat": 35.706389, "lng": 139.781111 },
  { "name": "蔵前", "lat": 35.703333, "lng": 139.790833 },
  { "name": "両国", "lat": 35.696111, "lng": 139.793889 },
  { "name": "森下", "lat": 35.688333, "lng": 139.798889 },
  { "name": "清澄白河", "lat": 35.681111, "lng": 139.798611 },
  { "name": "門前仲町", "lat": 35.671667, "lng": 139.796667 },
  { "name": "月島", "lat": 35.664167, "lng": 139.784444 },
  { "name": "勝どき", "lat": 35.658611, "lng": 139.776111 },
  { "name": "築地市場", "lat": 35.665556, "lng": 139.770278 },
  { "name": "汐留", "lat": 35.664444, "lng": 139.759722 },
  { "name": "大門", "lat": 35.655556, "lng": 139.756667 },
  { "name": "赤羽橋", "lat": 35.655278, "lng": 139.745278 },
  { "name": "麻布十番", "lat": 35.656111, "lng": 139.736389 },
  { "name": "六本木", "lat": 35.662778, "lng": 139.731667 },
  { "name": "青山一丁目", "lat": 35.672778, "lng": 139.723611 },
  { "name": "国立競技場", "lat": 35.678611, "lng": 139.715278 },
  { "name": "代々木", "lat": 35.683889, "lng": 139.702222 },
  { "name": "新宿", "lat": 35.689592, "lng": 139.700413 },
  { "name": "西新宿五丁目", "lat": 35.689444, "lng": 139.686667 },
  { "name": "中野坂上", "lat": 35.697222, "lng": 139.682222 },
  { "name": "東中野", "lat": 35.706111, "lng": 139.685833 },
  { "name": "中井", "lat": 35.714167, "lng": 139.685278 },
  { "name": "落合南長崎", "lat": 35.720278, "lng": 139.685 },
  { "name": "新江古田", "lat": 35.728056, "lng": 139.67 },
  { "name": "練馬", "lat": 35.737222, "lng": 139.654722 },
  { "name": "豊島園", "lat": 35.744444, "lng": 139.651111 },
  { "name": "練馬春日町", "lat": 35.750833, "lng": 139.644167 },
  { "name": "光が丘", "lat": 35.758889, "lng": 139.632222 }
],
"浅草線":[
  { "name": "西馬込", "lat": 35.586667, "lng": 139.702222 },
  { "name": "馬込", "lat": 35.596111, "lng": 139.711389 },
  { "name": "中延", "lat": 35.609444, "lng": 139.717222 },
  { "name": "戸越", "lat": 35.615556, "lng": 139.716667 },
  { "name": "五反田", "lat": 35.625556, "lng": 139.723611 },
  { "name": "高輪台", "lat": 35.632778, "lng": 139.730833 },
  { "name": "泉岳寺", "lat": 35.638889, "lng": 139.740833 },
  { "name": "三田", "lat": 35.648333, "lng": 139.747778 },
  { "name": "大門", "lat": 35.655556, "lng": 139.756667 },
  { "name": "新橋", "lat": 35.666333, "lng": 139.758667 },
  { "name": "東銀座", "lat": 35.668611, "lng": 139.767222 },
  { "name": "宝町", "lat": 35.675833, "lng": 139.772778 },
  { "name": "日本橋", "lat": 35.681111, "lng": 139.773889 },
  { "name": "人形町", "lat": 35.686111, "lng": 139.7825 },
  { "name": "東日本橋", "lat": 35.694167, "lng": 139.784444 },
  { "name": "浅草橋", "lat": 35.697222, "lng": 139.785 },
  { "name": "蔵前", "lat": 35.703333, "lng": 139.790833 },
  { "name": "浅草", "lat": 35.711998, "lng": 139.79861 },
  { "name": "本所吾妻橋", "lat": 35.708611, "lng": 139.804167 },
  { "name": "押上", "lat": 35.710556, "lng": 139.8125 }
]
  }
}
